{"places": [{"name": "Central Silk Board", "lat": 12.91614375, "lng": 77.62113085110673}, {"name": "HAL Main Gate", "lat": 12.9585125, "lng": 77.6660265}, {"name": "BTM Layout", "lat": 12.9151772, "lng": 77.6102821}, {"name": "Krupanidhi college", "lat": 12.9142111, "lng": 77.72390037335295}, {"name": "Vijayanagara", "lat": 12.9709559, "lng": 77.5374044}, {"name": "Chikkalasandra Bus Station", "lat": 12.9151671, "lng": 77.552159}, {"name": "marathahalli bridge", "lat": 12.9569237, "lng": 77.7011194}, {"name": "Vidyaranyapura", "lat": 13.0766407, "lng": 77.5577315}, {"name": "AECS Layout", "lat": 12.964118, "lng": 77.7130369}, {"name": "Mahalaksmi Layout", "lat": 0, "lng": 0}, {"name": "Nelamangala", "lat": 13.0953024, "lng": 77.3963586}, {"name": "Domlur.", "lat": 12.9624669, "lng": 77.6381958}, {"name": "DR.AIT", "lat": 12.9645411, "lng": 77.50608019141791}, {"name": "Naryana Hurdalaya", "lat": 0, "lng": 0}, {"name": "Basavewshwaranagar", "lat": 0, "lng": 0}, {"name": "Yeshwanthpura Bus Station", "lat": 0, "lng": 0}, {"name": "Swastik ,KR Circle", "lat": 0, "lng": 0}, {"name": "Indian Express", "lat": 12.98359, "lng": 77.5969266}, {"name": "Chandra layout", "lat": 12.965293, "lng": 77.5181551}, {"name": "K.R.Circle", "lat": 12.975957, "lng": 77.5871905}, {"name": "Kenchenhalli Gate", "lat": 0, "lng": 0}, {"name": "Sadashivanagara Police Station", "lat": 13.0149314, "lng": 77.5728595}, {"name": "Hebbala Ring Road", "lat": 12.9199125, "lng": 77.6430145}, {"name": "Electronic City Wipro Gate", "lat": 0, "lng": 0}, {"name": "Kundalahalli Gate,Sri Sri Sathya Sai Hospital.", "lat": 0, "lng": 0}, {"name": "Central Talkies", "lat": 0, "lng": 0}, {"name": "Nagarabavi Circle", "lat": 0, "lng": 0}, {"name": "Kathriguppe Cross", "lat": 0, "lng": 0}, {"name": "Maharani\u2019s College", "lat": 12.9792324, "lng": 77.58378472740652}, {"name": "Chandra Layout", "lat": 12.965293, "lng": 77.5181551}, {"name": "BSK 3rd Stg 3rd Phase", "lat": 0, "lng": 0}, {"name": "Hebbagodi.", "lat": 12.8267016, "lng": 77.6799745}, {"name": "Bommanahalli,Agara,Marathahalli Bridge", "lat": 0, "lng": 0}, {"name": "Marathhahalli Bridge", "lat": 0, "lng": 0}, {"name": "Hope Farm,", "lat": 12.9828923, "lng": 77.75331443178575}, {"name": "SI Apartment (HSR)", "lat": 12.916641, "lng": 77.6292687}, {"name": "Brigade Road", "lat": 12.9714852, "lng": 77.6069655}, {"name": "Agara", "lat": 13.0386734, "lng": 77.6468085}, {"name": "Hoskerehalli Cross", "lat": 12.9339238, "lng": 77.5390368}, {"name": "Kengeri Housing Board QRTS", "lat": 0, "lng": 0}, {"name": "Jayanagara 4th Block", "lat": 12.9277036, "lng": 77.5835147}, {"name": "Kundalahalli", "lat": 12.9684441, "lng": 77.7187843}, {"name": "Uttarahalli", "lat": 12.9055682, "lng": 77.5455438}, {"name": "Marathahalli", "lat": 12.9552572, "lng": 77.6984163}, {"name": "Banashankari Bus Stand", "lat": 0, "lng": 0}, {"name": "Corporation,Banashankari", "lat": 0, "lng": 0}, {"name": "Majestic (KBS)", "lat": 0, "lng": 0}, {"name": "Chamrajpet", "lat": 12.9569966, "lng": 77.5633682}, {"name": "Marathahalli Bridge", "lat": 12.9569237, "lng": 77.7011194}, {"name": "Chikkabanavara", "lat": 13.0828877, "lng": 77.5079901351852}, {"name": "K.R.Puram Rly.Stn,Marathhalli Bridge", "lat": 0, "lng": 0}, {"name": "Dell IT Complex ", "lat": 0, "lng": 0}, {"name": "Banasawadi", "lat": 13.0150607, "lng": 77.3649316}, {"name": "Mayo Hall Manipal Hospital", "lat": 0, "lng": 0}, {"name": "Kundanahalli Gate,Sri Sathhya Sai Hospital", "lat": 0, "lng": 0}, {"name": "Koramangala 80Ft Road", "lat": 0, "lng": 0}, {"name": "Shanti Nagar Bus Station", "lat": 12.954326250000001, "lng": 77.59263475716921}, {"name": "Singhasandra", "lat": 0, "lng": 0}, {"name": "BSK", "lat": 12.8957037, "lng": 77.555019}, {"name": "Bangalore Club", "lat": 12.9664242, "lng": 77.5974834}, {"name": "ISRO Layout", "lat": 12.8974283, "lng": 77.5573828}, {"name": "Kalyani Magnum (JP Nagar)", "lat": 12.8993766, "lng": 77.5968829}, {"name": "Devasandra", "lat": 12.7572271, "lng": 77.6472795}, {"name": "Marathahalli,", "lat": 12.9552572, "lng": 77.6984163}, {"name": "Johnson Market", "lat": 12.9641785, "lng": 77.60616060618568}, {"name": "Yeshwanthpura", "lat": 13.02560935, "lng": 77.55410684919815}, {"name": "Adugodi", "lat": 12.9428472, "lng": 77.6104155}, {"name": "Sujatha", "lat": 15.3509212, "lng": 75.1341008}, {"name": "Electronic City (PH II)", "lat": 12.848759900000001, "lng": 77.64825295827616}, {"name": "Attibele", "lat": 12.7782588, "lng": 77.7712834}, {"name": "Yelahanka Sat Town PH V", "lat": 0, "lng": 0}, {"name": "Hosakerehalli Cross", "lat": 12.9326699, "lng": 77.5453184}, {"name": "Mahilaseva Samaja", "lat": 0, "lng": 0}, {"name": "Avalahalli BDA Park", "lat": 12.942864700000001, "lng": 77.54300218319841}, {"name": "Sri Sri Sathya Sai Hospital,", "lat": 12.973461050000001, "lng": 77.75111514194242}, {"name": "Chowdeshwari Bus Station", "lat": 0, "lng": 0}, {"name": "Jn. of 80ft Road,J n of Dupanahalli,HAL Main Gate,Marathahalli Bridge", "lat": 0, "lng": 0}, {"name": "Sri Sathya Sai Hospital", "lat": 12.973461050000001, "lng": 77.75111514194242}, {"name": "Nanjappa Circle,", "lat": 12.9604441, "lng": 77.6010513}, {"name": "Majestic (KBS) Wilson Garden Police Station", "lat": 0, "lng": 0}, {"name": "Yeshwantpura", "lat": 13.0232943, "lng": 77.54983068647613}, {"name": "Mayo Hall,Tippasandra", "lat": 0, "lng": 0}, {"name": "Sathyasai Hospital", "lat": 0, "lng": 0}, {"name": "Gunjur", "lat": 13.4279345, "lng": 77.5131493}, {"name": "Shanthi Nagar", "lat": 12.95825395, "lng": 77.6025706924521}, {"name": "Nagarabhavi (BDA Complex)", "lat": 12.9795534, "lng": 77.5106479}, {"name": "Koramangala water Tank", "lat": 12.9269389, "lng": 77.6226072}, {"name": "Nagawara Road,Channasandra,KR Puram Rly Station", "lat": 0, "lng": 0}, {"name": "Binnamangala", "lat": 12.9839881, "lng": 77.6416769}, {"name": "Electronic City (Infosys)", "lat": 12.8447999, "lng": 77.66323896266928}, {"name": "BTM Layout,Agara,Kundalahalli", "lat": 0, "lng": 0}, {"name": "Cauvery Bhavan,", "lat": 12.972890199999998, "lng": 77.58263044218306}, {"name": "Corporation,HAL Main Gate", "lat": 0, "lng": 0}, {"name": "HAL Main Gate,", "lat": 12.9585125, "lng": 77.6660265}, {"name": "Modi Hospital", "lat": 12.9975102, "lng": 77.546099}, {"name": "Jayanagar 9th East Block", "lat": 12.917589, "lng": 77.5948906}, {"name": "Hulimavu Gate", "lat": 12.8816224, "lng": 77.5960134}, {"name": "Marathalli Bridge", "lat": 0, "lng": 0}, {"name": "Graphite India Ltd", "lat": 0, "lng": 0}, {"name": "Hebbal", "lat": 13.0382184, "lng": 77.5919}, {"name": "Mallehwaram", "lat": 0, "lng": 0}, {"name": "Banashankari Stage", "lat": 12.932708, "lng": 77.5462535}, {"name": "Wilson Garden Police Station", "lat": 12.9501904, "lng": 77.59609214223858}, {"name": "Chandapura.", "lat": 12.8004439, "lng": 77.7062826}, {"name": "Nagendra Block,", "lat": 12.942029, "lng": 77.5520036}, {"name": "Vijayanagar", "lat": 12.9718886, "lng": 77.54578883887129}, {"name": "J.P.Nagara PH VI", "lat": 0, "lng": 0}, {"name": "Kumaraswamy Layout,", "lat": 12.9081487, "lng": 77.5553179}, {"name": "Electronicity", "lat": 0, "lng": 0}, {"name": "Hoskere Halli Cross,", "lat": 0, "lng": 0}, {"name": "Hebbala", "lat": 13.0383248, "lng": 77.5890628}, {"name": "Jayanagar 9th Block East", "lat": 12.9191456, "lng": 77.5938653}, {"name": "Kattariguppe", "lat": 13.4699551, "lng": 77.7958812}, {"name": "C.V.Raman Nagara", "lat": 12.9856596, "lng": 77.6638971}, {"name": "Chandapura", "lat": 12.8004439, "lng": 77.7062826}, {"name": "Kalyana Nagara.", "lat": 12.9676588, "lng": 77.5238617}, {"name": "M.M.Industries", "lat": 12.93051495, "lng": 77.57343052356869}, {"name": "Yelahanka", "lat": 13.1006982, "lng": 77.5963454}, {"name": "K.R.Puram Rly.Stn", "lat": 0, "lng": 0}, {"name": "Doddanekunte", "lat": 0, "lng": 0}, {"name": "Dasarahalli,Makali", "lat": 0, "lng": 0}, {"name": "Military Accounts", "lat": 12.9655617, "lng": 77.6173316}, {"name": "Malleshwaram", "lat": 13.0027353, "lng": 77.5703253}, {"name": "Narayana Hrudayalaya", "lat": 12.809031449999999, "lng": 77.6948972565973}, {"name": "Shivajinagara Bus Station", "lat": 0, "lng": 0}, {"name": "PES College", "lat": 12.9350701, "lng": 77.5370613}, {"name": "Mallesh Palya", "lat": 12.9748146, "lng": 77.6703311}, {"name": "Madiwala", "lat": 12.9212269, "lng": 77.6179508}, {"name": "Bannerghatta", "lat": 12.8403298, "lng": 77.5941657}, {"name": "Siddapura", "lat": 12.9542596, "lng": 77.7309743}, {"name": "Jn. of Sarjapura Road", "lat": 0, "lng": 0}, {"name": "Jalahalli Cross,", "lat": 13.0400428, "lng": 77.51846}, {"name": "Varthur", "lat": 12.9406152, "lng": 77.7469937}, {"name": "Srinagara", "lat": 12.9442619, "lng": 77.5545923}, {"name": "Sri Sri Sathya Sai Hospital", "lat": 12.973461050000001, "lng": 77.75111514194242}, {"name": "Padamanabha nagar,Devegowda Petrol Bunk,BSK", "lat": 0, "lng": 0}, {"name": "Corporation", "lat": 12.9685004, "lng": 77.5865073}, {"name": "Lalbagh Main Gate", "lat": 12.9537155, "lng": 77.5858442}, {"name": "Corporation,Domlur HAL Main Gate", "lat": 0, "lng": 0}, {"name": "BEML Complex", "lat": 12.920158, "lng": 77.5204954}, {"name": "Hope Form", "lat": 0, "lng": 0}, {"name": "Electronic City (Wipro Gate)", "lat": 0, "lng": 0}, {"name": "Mekhri Circle", "lat": 13.0144437, "lng": 77.5838814}, {"name": "Krupanidhi College", "lat": 12.9142111, "lng": 77.72390037335295}, {"name": "Hombegowda Police Station", "lat": 0, "lng": 0}, {"name": "KBS", "lat": 12.9376675, "lng": 77.5492313}, {"name": "Kundanahalli Gate", "lat": 12.9558625, "lng": 77.7147175}, {"name": "Hosa Road", "lat": 12.8747372, "lng": 77.668964}, {"name": "Kalyanagara Bus Stand", "lat": 0, "lng": 0}, {"name": "Mayo Hall", "lat": 12.973855, "lng": 77.6112422}, {"name": "Attiguppe", "lat": 12.9628474, "lng": 77.5291685}, {"name": "Jayanagar Bus tand", "lat": 0, "lng": 0}, {"name": "III BTM Layout", "lat": 12.9151772, "lng": 77.6102821}, {"name": "Domlur", "lat": 12.9624669, "lng": 77.6381958}, {"name": "Cottonpet Hospital", "lat": 12.9678052, "lng": 77.5702672}, {"name": "Kadigodi", "lat": 0, "lng": 0}, {"name": "Kadabisanahalli", "lat": 12.9360011, "lng": 77.6975854}, {"name": "Jigani", "lat": 12.7852528, "lng": 77.6380931}, {"name": "Bommanahalli", "lat": 12.9089453, "lng": 77.6239038}, {"name": "Kuvempu Nagar", "lat": 13.07319265, "lng": 77.541713406882}, {"name": "RV College", "lat": 12.9253246, "lng": 77.4991719}, {"name": "Electronic city Phase II", "lat": 12.8419314, "lng": 77.6754937}, {"name": "Central silk Board", "lat": 12.91614375, "lng": 77.62113085110673}, {"name": "Padamanabhanagar,Devegowda Petrol Bunk,BSK BDA Complex,Mono Type", "lat": 0, "lng": 0}, {"name": "Vijayanagara.", "lat": 12.9709559, "lng": 77.5374044}, {"name": "Electronic City,", "lat": 12.848759900000001, "lng": 77.64825295827616}, {"name": "Nagarabhavi BDA Complex", "lat": 12.9795534, "lng": 77.5106479}, {"name": "Basaveshwara Nagar", "lat": 12.9931607, "lng": 77.5394749}, {"name": "Vijayangara", "lat": 0, "lng": 0}, {"name": "Agara.", "lat": 13.0386734, "lng": 77.6468085}, {"name": "Graphite India Ltd.", "lat": 0, "lng": 0}, {"name": "Bannerghatta National Park", "lat": 12.53290595, "lng": 77.54619068920488}, {"name": "ISKON", "lat": 15.4047443, "lng": 75.07000709770068}, {"name": "Basaveshwarnagara bus stand", "lat": 0, "lng": 0}, {"name": "Electronic City", "lat": 12.848759900000001, "lng": 77.64825295827616}, {"name": "Konappana Agrahara", "lat": 12.8528618, "lng": 77.668169}, {"name": "Kadugodi Bus Station", "lat": 12.995708, "lng": 77.75850558821469}, {"name": "MRC College,Coles Park,Maruti seva nagar", "lat": 0, "lng": 0}, {"name": "K.R.Market", "lat": 12.9608898, "lng": 77.5746822}, {"name": "HAL Kalyanamantapa", "lat": 12.9546175, "lng": 77.6824023}, {"name": "Anekal", "lat": 12.799122, "lng": 77.68060437921743}, {"name": "Manipal Hospital", "lat": 12.998229649999999, "lng": 77.69307898403069}, {"name": "Banashankari", "lat": 12.965283249999999, "lng": 77.59445195}, {"name": "ITPL", "lat": 12.9876616, "lng": 77.7369153}, {"name": "Southend Circle", "lat": 12.9366676, "lng": 77.5771236}, {"name": "Kundala Halli", "lat": 0, "lng": 0}]}